[
	{
		"id" : 0,
		"name" : "Zilker Metropolitan Park",
		"city" : "Austin",
		"address" : "2100 Barton Springs Rd, Austin, TX 78704, USA",
		"rating" : 4.7,
		"google_id" : "ChIJT-TyHTq1RIYRrV8umxkqGGI",
		"description" : null,
		"website" : null,
		"latitude" : -97.772857666016,
		"longitude" : 30.266962051392
	},
	{
		"id" : 1,
		"name" : "Pease District Park",
		"city" : "Austin",
		"address" : "1100 Kingsbury St, Austin, TX 78705, USA",
		"rating" : 4.6,
		"google_id" : "ChIJva0k12-1RIYRWWvusUoiw_4",
		"description" : null,
		"website" : null,
		"latitude" : -97.754074096680,
		"longitude" : 30.284456253052
	},
	{
		"id" : 2,
		"name" : "Emma Long Metropolitan Park",
		"city" : "Austin",
		"address" : "1600 City Park Rd, Austin, TX 78730, USA",
		"rating" : 4.4,
		"google_id" : "ChIJhe5fV1M0W4YRqGxuZUsZI80",
		"description" : null,
		"website" : null,
		"latitude" : -97.835517883301,
		"longitude" : 30.343170166016
	},
	{
		"id" : 3,
		"name" : "Mayfield Park and Nature Preserve",
		"city" : "Austin",
		"address" : "3505 W 35th St, Austin, TX 78703, USA",
		"rating" : 4.6,
		"google_id" : "ChIJI349t7vKRIYRAB0f414STOk",
		"description" : null,
		"website" : null,
		"latitude" : -97.771621704102,
		"longitude" : 30.312973022461
	},
	{
		"id" : 4,
		"name" : "Mueller Lake Park",
		"city" : "Austin",
		"address" : "4550 Mueller Blvd, Austin, TX 78723, USA",
		"rating" : 4.7,
		"google_id" : "ChIJKYtScPm1RIYR3XNM9fOKrMY",
		"description" : null,
		"website" : null,
		"latitude" : -97.705848693848,
		"longitude" : 30.296770095825
	},
	{
		"id" : 5,
		"name" : "McKinney Falls State Park",
		"city" : "Austin",
		"address" : "5808 McKinney Falls Pkwy, Austin, TX 78744, USA",
		"rating" : 4.4,
		"google_id" : "ChIJi7M4Nb6zRIYRk8YBYI8Jg_s",
		"description" : null,
		"website" : null,
		"latitude" : -97.721740722656,
		"longitude" : 30.180358886719
	},
	{
		"id" : 6,
		"name" : "Walnut Creek Metropolitan Park",
		"city" : "Austin",
		"address" : "12138 N Lamar Blvd, Austin, TX 78753, USA",
		"rating" : 4.6,
		"google_id" : "ChIJ5RRjerHORIYR0qHkw2I4CdA",
		"description" : null,
		"website" : null,
		"latitude" : -97.680252075195,
		"longitude" : 30.400163650513
	},
	{
		"id" : 7,
		"name" : "Bull Creek District Park",
		"city" : "Austin",
		"address" : "6701 Lakewood Dr, Austin, TX 78731, USA",
		"rating" : 4.6,
		"google_id" : "ChIJIUFEFrU0W4YRv9xvw4rIO6o",
		"description" : null,
		"website" : null,
		"latitude" : -97.784461975098,
		"longitude" : 30.368671417236
	},
	{
		"id" : 8,
		"name" : "Auditorium Shores at Town Lake Metropolitan Park",
		"city" : "Austin",
		"address" : "900 W Riverside Dr, Austin, TX 78704, USA",
		"rating" : 4.7,
		"google_id" : "ChIJSfh_QgW1RIYRMGJ2BEpGG1c",
		"description" : null,
		"website" : null,
		"latitude" : -97.753547668457,
		"longitude" : 30.262027740479
	},
	{
		"id" : 9,
		"name" : "Red Bud Isle",
		"city" : "Austin",
		"address" : "3401 Redbud Trail, Austin, TX 78746, USA",
		"rating" : 4.6,
		"google_id" : "ChIJw5DRkKxKW4YR39xiQOzTrcQ",
		"description" : null,
		"website" : null,
		"latitude" : -97.786842346191,
		"longitude" : 30.290819168091
	},
	{
		"id" : 10,
		"name" : "Barton Creek Greenbelt",
		"city" : "Austin",
		"address" : "3755 S Capital of Texas Hwy, Austin, TX 78704, USA",
		"rating" : 4.7,
		"google_id" : "ChIJabb0sdZKW4YR7Rlal52tALI",
		"description" : null,
		"website" : null,
		"latitude" : -97.812690734863,
		"longitude" : 30.247167587280
	},
	{
		"id" : 11,
		"name" : "Mansfield Dam Park",
		"city" : "Austin",
		"address" : "4370 Mansfield Dam Park Rd., Austin, TX 78732, USA",
		"rating" : 4.5,
		"google_id" : "ChIJFeXp-iQxW4YRRAeSYlLITFc",
		"description" : null,
		"website" : null,
		"latitude" : -97.907669067383,
		"longitude" : 30.395708084106
	},
	{
		"id" : 12,
		"name" : "Roy G. Guerrero Colorado River Metro Park",
		"city" : "Austin",
		"address" : "400 Grove Blvd, Austin, TX 78741, USA",
		"rating" : 4.5,
		"google_id" : "ChIJu2YX6yi0RIYRrBTvYTY-yCM",
		"description" : null,
		"website" : null,
		"latitude" : -97.704437255859,
		"longitude" : 30.244451522827
	},
	{
		"id" : 13,
		"name" : "Dick Nichols District Park",
		"city" : "Austin",
		"address" : "8011 Beckett Rd, Austin, TX 78749, USA",
		"rating" : 4.4,
		"google_id" : "ChIJ8wDHlu9LW4YR1Ekf_5ldE7E",
		"description" : null,
		"website" : null,
		"latitude" : -97.859863281250,
		"longitude" : 30.212440490723
	},
	{
		"id" : 14,
		"name" : "West Austin Neighborhood Park",
		"city" : "Austin",
		"address" : "1317 W 10th St, Austin, TX 78703, USA",
		"rating" : 4.5,
		"google_id" : "ChIJhcgsmmy1RIYRv1YxwgGLM7g",
		"description" : null,
		"website" : null,
		"latitude" : -97.757461547852,
		"longitude" : 30.276983261108
	},
	{
		"id" : 15,
		"name" : "Mary Moore Searight Metropolitan Park",
		"city" : "Austin",
		"address" : "907 West Slaughter Lane, Austin, TX 78748, USA",
		"rating" : 4.6,
		"google_id" : "ChIJBeV_R9xMW4YRq9GzR-xx_q8",
		"description" : null,
		"website" : null,
		"latitude" : -97.808242797852,
		"longitude" : 30.158735275269
	},
	{
		"id" : 16,
		"name" : "Ramsey Neighborhood Park",
		"city" : "Austin",
		"address" : "4301 Rosedale Ave, Austin, TX 78756, USA",
		"rating" : 4.5,
		"google_id" : "ChIJcdzIsonKRIYR8Kbj7TtGg0c",
		"description" : null,
		"website" : null,
		"latitude" : -97.743537902832,
		"longitude" : 30.313272476196
	},
	{
		"id" : 17,
		"name" : "Shipe Neighborhood Park",
		"city" : "Austin",
		"address" : "4400 Avenue G, Austin, TX 78751, USA",
		"rating" : 4.2,
		"google_id" : "ChIJ66uMEHHKRIYRrY7uT7UPs-Q",
		"description" : null,
		"website" : null,
		"latitude" : -97.727371215820,
		"longitude" : 30.307415008545
	},
	{
		"id" : 18,
		"name" : "Big Stacy Neighborhood Park",
		"city" : "Austin",
		"address" : "700 E Live Oak St, Austin, TX 78704, USA",
		"rating" : 4.4,
		"google_id" : "ChIJBZ4MS_e0RIYRr9Iq622RvAo",
		"description" : null,
		"website" : null,
		"latitude" : -97.747100830078,
		"longitude" : 30.240211486816
	},
	{
		"id" : 19,
		"name" : "Covert Park at Mount Bonnell",
		"city" : "Austin",
		"address" : "3800 Mt Bonnell Rd, Austin, TX 78731, USA",
		"rating" : 4.6,
		"google_id" : "ChIJecsZp8jKRIYR_WvZ0OYk9q0",
		"description" : null,
		"website" : null,
		"latitude" : -97.773231506348,
		"longitude" : 30.321636199951
	},
	{
		"id" : 20,
		"name" : "Mill Ends Park",
		"city" : "Portland",
		"address" : "56 SW Taylor St, Portland, OR 97204, USA",
		"rating" : 4.4,
		"google_id" : "ChIJ5aJvEA8KlVQRf_H2D-kqjIc",
		"description" : null,
		"website" : null,
		"latitude" : -122.673271179199,
		"longitude" : 45.516204833984
	},
	{
		"id" : 21,
		"name" : "Washington Park",
		"city" : "Portland",
		"address" : "4033 Southwest Canyon Road, Portland, OR 97221, USA",
		"rating" : 4.6,
		"google_id" : "ChIJGfTXCycKlVQRe9loilMSQG4",
		"description" : null,
		"website" : null,
		"latitude" : -122.712738037109,
		"longitude" : 45.512641906738
	},
	{
		"id" : 22,
		"name" : "Laurelhurst Park",
		"city" : "Portland",
		"address" : "SE Cesar E Chavez Blvd & Stark St, Portland, OR 97214, USA",
		"rating" : 4.6,
		"google_id" : "ChIJLbTuxOqglVQRXgWNWDb3baI",
		"description" : null,
		"website" : null,
		"latitude" : -122.627143859863,
		"longitude" : 45.521175384521
	},
	{
		"id" : 23,
		"name" : "Forest Park",
		"city" : "Portland",
		"address" : "Portland, OR 97231, USA",
		"rating" : 4.7,
		"google_id" : "ChIJqcSquG0IlVQRTffmVCThZ1k",
		"description" : null,
		"website" : null,
		"latitude" : -122.774566650391,
		"longitude" : 45.575370788574
	},
	{
		"id" : 24,
		"name" : "Council Crest Park",
		"city" : "Portland",
		"address" : "1120 SW Council Crest Dr, Portland, OR 97239, USA",
		"rating" : 4.6,
		"google_id" : "ChIJVxwSAjUKlVQRO7flVL8N8m4",
		"description" : null,
		"website" : null,
		"latitude" : -122.707908630371,
		"longitude" : 45.498619079590
	},
	{
		"id" : 25,
		"name" : "Overlook Park",
		"city" : "Portland",
		"address" : "1599 N Fremont St, Portland, OR 97227, USA",
		"rating" : 4.2,
		"google_id" : "ChIJBa0HbWinlVQRpstaBx75aMs",
		"description" : null,
		"website" : null,
		"latitude" : -122.682563781738,
		"longitude" : 45.548522949219
	},
	{
		"id" : 26,
		"name" : "Mt. Tabor Park",
		"city" : "Portland",
		"address" : "SE Salmon St, Portland, OR 97215, USA",
		"rating" : 4.8,
		"google_id" : "ChIJNVdWgfiglVQRSuD8w0aQGrk",
		"description" : null,
		"website" : null,
		"latitude" : -122.597686767578,
		"longitude" : 45.514003753662
	},
	{
		"id" : 27,
		"name" : "Tom McCall Waterfront Park",
		"city" : "Portland",
		"address" : "98 SW Naito Pkwy, Portland, OR 97204, USA",
		"rating" : 4.8,
		"google_id" : "ChIJdQ2FZAcKlVQR_yugz8TaIP0",
		"description" : null,
		"website" : null,
		"latitude" : -122.669998168945,
		"longitude" : 45.522754669189
	},
	{
		"id" : 28,
		"name" : "Tanner Springs Park",
		"city" : "Portland",
		"address" : "Northwest 10th Avenue & Marshall Street, Portland, OR 97209, USA",
		"rating" : 4.5,
		"google_id" : "ChIJE-AuCv4JlVQR5ZQW0fPD244",
		"description" : null,
		"website" : null,
		"latitude" : -122.681938171387,
		"longitude" : 45.531162261963
	},
	{
		"id" : 29,
		"name" : "Sellwood Riverfront Park",
		"city" : "Portland",
		"address" : "1212 SE Spokane St, Portland, OR 97202, USA",
		"rating" : 4.4,
		"google_id" : "ChIJIeDfZ94KlVQRQ6u9CacgIy0",
		"description" : null,
		"website" : null,
		"latitude" : -122.661903381348,
		"longitude" : 45.465045928955
	},
	{
		"id" : 30,
		"name" : "Director Park",
		"city" : "Portland",
		"address" : "815 SW Park Ave, Portland, OR 97205, USA",
		"rating" : 4.3,
		"google_id" : "ChIJSSza0AQKlVQRe3zUTjsBp2E",
		"description" : null,
		"website" : null,
		"latitude" : -122.681465148926,
		"longitude" : 45.518688201904
	},
	{
		"id" : 31,
		"name" : "Gabriel Park",
		"city" : "Portland",
		"address" : "SW 45th Ave & Vermont Street, Portland, OR 97219, USA",
		"rating" : 4.6,
		"google_id" : "ChIJQb4pLp4LlVQRs1uPXaO6Wno",
		"description" : null,
		"website" : null,
		"latitude" : -122.719108581543,
		"longitude" : 45.474296569824
	},
	{
		"id" : 32,
		"name" : "Willamette Park",
		"city" : "Portland",
		"address" : "6805 SW Macadam Ave, Portland, OR 97219, USA",
		"rating" : 4.3,
		"google_id" : "ChIJy_Do8uQKlVQR8GUphid31lQ",
		"description" : null,
		"website" : null,
		"latitude" : -122.669723510742,
		"longitude" : 45.474346160889
	},
	{
		"id" : 33,
		"name" : "Alberta Park",
		"city" : "Portland",
		"address" : "1905 NE Killingsworth St, Portland, OR 97211, USA",
		"rating" : 4.4,
		"google_id" : "ChIJaUIa1-OmlVQR1XPvq2xBnHc",
		"description" : null,
		"website" : null,
		"latitude" : -122.645103454590,
		"longitude" : 45.564476013184
	},
	{
		"id" : 34,
		"name" : "Irving Park",
		"city" : "Portland",
		"address" : "707 NE Fremont St, Portland, OR 97212, USA",
		"rating" : 4.6,
		"google_id" : "ChIJDUa4nTmnlVQRfjqbTL6VaXM",
		"description" : null,
		"website" : null,
		"latitude" : -122.658615112305,
		"longitude" : 45.548267364502
	},
	{
		"id" : 35,
		"name" : "Peninsula Park Rose Garden",
		"city" : "Portland",
		"address" : "700 N Rosa Parks Way, Portland, OR 97217, USA",
		"rating" : 4.7,
		"google_id" : "ChIJG3ungAinlVQRY4qQAC-c6SM",
		"description" : null,
		"website" : null,
		"latitude" : -122.673385620117,
		"longitude" : 45.567371368408
	},
	{
		"id" : 36,
		"name" : "South Park Blocks",
		"city" : "Portland",
		"address" : "SW Park Ave, Portland, OR 97204, USA",
		"rating" : 4.1,
		"google_id" : "ChIJCc5QthAKlVQRKekOJ9xx9z0",
		"description" : null,
		"website" : null,
		"latitude" : -122.684425354004,
		"longitude" : 45.513149261475
	},
	{
		"id" : 37,
		"name" : "Creston Park",
		"city" : "Portland",
		"address" : "4220 SE Rhone St, Portland, OR 97206, USA",
		"rating" : 4.1,
		"google_id" : "ChIJ13bTMWWglVQRmzQ9mfXYiww",
		"description" : null,
		"website" : null,
		"latitude" : -122.618087768555,
		"longitude" : 45.496131896973
	},
	{
		"id" : 38,
		"name" : "Wilshire Park",
		"city" : "Portland",
		"address" : "NE 33rd Ave, Portland, OR 97212, USA",
		"rating" : 4.4,
		"google_id" : "ChIJBS2AQ9emlVQRcQL3PwLU3Wk",
		"description" : null,
		"website" : null,
		"latitude" : -122.627937316895,
		"longitude" : 45.552837371826
	},
	{
		"id" : 39,
		"name" : "Powell Butte Nature Park",
		"city" : "Portland",
		"address" : "16160 SE Powell Blvd, Portland, OR 97236, USA",
		"rating" : 4.6,
		"google_id" : "ChIJEd07m0SflVQR3z0qWDWqj6M",
		"description" : null,
		"website" : null,
		"latitude" : -122.496994018555,
		"longitude" : 45.490695953369
	},
	{
		"id" : 40,
		"name" : "Discovery Park",
		"city" : "Seattle",
		"address" : "3801 Discovery Park Blvd, Seattle, WA 98199, USA",
		"rating" : 4.7,
		"google_id" : "ChIJn0CO4fAVkFQRIGP6pMpCmFE",
		"description" : null,
		"website" : null,
		"latitude" : -122.405494689941,
		"longitude" : 47.657302856445
	},
	{
		"id" : 41,
		"name" : "Volunteer Park",
		"city" : "Seattle",
		"address" : "1247 15th Ave E, Seattle, WA 98112, USA",
		"rating" : 4.7,
		"google_id" : "ChIJ3TTM_CcVkFQRtMStux6Hvyw",
		"description" : null,
		"website" : null,
		"latitude" : -122.315048217773,
		"longitude" : 47.630027770996
	},
	{
		"id" : 42,
		"name" : "Myrtle Edwards Park",
		"city" : "Seattle",
		"address" : "3130 Alaskan Way, Seattle, WA 98121, USA",
		"rating" : 4.7,
		"google_id" : "ChIJ4yjQRVwVkFQRGgpA_cetS70",
		"description" : null,
		"website" : null,
		"latitude" : -122.361816406250,
		"longitude" : 47.619438171387
	},
	{
		"id" : 43,
		"name" : "Lincoln Park",
		"city" : "Seattle",
		"address" : "8011 Fauntleroy Way SW, Seattle, WA 98136, USA",
		"rating" : 4.7,
		"google_id" : "ChIJnRb12DlBkFQR_SuL0fockuc",
		"description" : null,
		"website" : null,
		"latitude" : -122.395988464355,
		"longitude" : 47.530570983887
	},
	{
		"id" : 44,
		"name" : "Seward Park",
		"city" : "Seattle",
		"address" : "5900 Lake Washington Blvd S, Seattle, WA 98118, USA",
		"rating" : 4.7,
		"google_id" : "ChIJ8fB3DCFqkFQRuPuGyAgceTw",
		"description" : null,
		"website" : null,
		"latitude" : -122.257354736328,
		"longitude" : 47.549606323242
	},
	{
		"id" : 45,
		"name" : "Gas Works Park",
		"city" : "Seattle",
		"address" : "2101 N Northlake Way, Seattle, WA 98103, USA",
		"rating" : 4.6,
		"google_id" : "ChIJf7BbsgIVkFQRlmFJ7KtVbh4",
		"description" : null,
		"website" : null,
		"latitude" : -122.334350585938,
		"longitude" : 47.645629882812
	},
	{
		"id" : 46,
		"name" : "Carkeek Park",
		"city" : "Seattle",
		"address" : "950 NW Carkeek Park Rd, Seattle, WA 98177, USA",
		"rating" : 4.7,
		"google_id" : "ChIJyVw29LsWkFQRtWZ3uO0R9hA",
		"description" : null,
		"website" : null,
		"latitude" : -122.372169494629,
		"longitude" : 47.711624145508
	},
	{
		"id" : 47,
		"name" : "Kerry Park",
		"city" : "Seattle",
		"address" : "211 W Highland Dr, Seattle, WA 98119, USA",
		"rating" : 4.7,
		"google_id" : "ChIJUS2ELmoVkFQRjrUkJB5o9zM",
		"description" : null,
		"website" : null,
		"latitude" : -122.359924316406,
		"longitude" : 47.629470825195
	},
	{
		"id" : 48,
		"name" : "Olympic Sculpture Park",
		"city" : "Seattle",
		"address" : "2901 Western Ave, Seattle, WA 98121, USA",
		"rating" : 4.4,
		"google_id" : "ChIJc88dJ1AVkFQRmZ_S-xv-_Hs",
		"description" : null,
		"website" : null,
		"latitude" : -122.355308532715,
		"longitude" : 47.616596221924
	},
	{
		"id" : 49,
		"name" : "Golden Gardens Park",
		"city" : "Seattle",
		"address" : "8498 Seaview Pl NW, Seattle, WA 98117, USA",
		"rating" : 4.7,
		"google_id" : "ChIJ72JgjmQWkFQRygp_TI2DLFs",
		"description" : null,
		"website" : null,
		"latitude" : -122.403091430664,
		"longitude" : 47.691753387451
	},
	{
		"id" : 50,
		"name" : "Green Lake Park",
		"city" : "Seattle",
		"address" : "7201 East Green Lake Dr N, Seattle, WA 98115, USA",
		"rating" : 4.8,
		"google_id" : "ChIJEbIG9xUUkFQReKeuJo4qVKk",
		"description" : null,
		"website" : null,
		"latitude" : -122.328315734863,
		"longitude" : 47.680213928223
	},
	{
		"id" : 51,
		"name" : "Ravenna Park",
		"city" : "Seattle",
		"address" : "5520 Ravenna Ave NE, Seattle, WA 98105, USA",
		"rating" : 4.6,
		"google_id" : "ChIJGdxLn3wUkFQRDkH8l-Ix8WM",
		"description" : null,
		"website" : null,
		"latitude" : -122.308036804199,
		"longitude" : 47.672462463379
	},
	{
		"id" : 52,
		"name" : "Waterfront Park",
		"city" : "Seattle",
		"address" : "1401 Alaskan Way, Seattle, WA 98101, USA",
		"rating" : 4.4,
		"google_id" : "ChIJL7yqjK1qkFQRDj6HS3N-GiA",
		"description" : null,
		"website" : null,
		"latitude" : -122.341827392578,
		"longitude" : 47.607040405273
	},
	{
		"id" : 53,
		"name" : "Magnuson Park",
		"city" : "Seattle",
		"address" : "7400 Sand Point Way NE, Seattle, WA 98115, USA",
		"rating" : 4.6,
		"google_id" : "ChIJTSbT3aATkFQRHymm3sgqcb8",
		"description" : null,
		"website" : null,
		"latitude" : -122.253204345703,
		"longitude" : 47.680255889893
	},
	{
		"id" : 54,
		"name" : "Washington Park Arboretum UW Botanic Gardens",
		"city" : "Seattle",
		"address" : "2300 Arboretum Dr E, Seattle, WA 98112, USA",
		"rating" : 4.7,
		"google_id" : "ChIJgTy59sYUkFQRin5kehZcTqI",
		"description" : null,
		"website" : null,
		"latitude" : -122.294471740723,
		"longitude" : 47.639793395996
	},
	{
		"id" : 55,
		"name" : "Volunteer Park Conservatory",
		"city" : "Seattle",
		"address" : "1400 E Galer St, Seattle, WA 98112, USA",
		"rating" : 4.6,
		"google_id" : "ChIJW1CAetgUkFQRPxHiXgoMMi4",
		"description" : null,
		"website" : null,
		"latitude" : -122.315727233887,
		"longitude" : 47.632122039795
	},
	{
		"id" : 56,
		"name" : "Woodland Park Rose Garden",
		"city" : "Seattle",
		"address" : "750 N 50th St, Seattle, WA 98103, USA",
		"rating" : 4.6,
		"google_id" : "ChIJ32Y4eU4UkFQRKkREv_kZBDA",
		"description" : null,
		"website" : null,
		"latitude" : -122.349342346191,
		"longitude" : 47.665767669678
	},
	{
		"id" : 57,
		"name" : "Kubota Garden",
		"city" : "Seattle",
		"address" : "9817 55th Ave S, Seattle, WA 98118, USA",
		"rating" : 4.7,
		"google_id" : "ChIJA2y97GVCkFQRLhpMnRq2Nd8",
		"description" : null,
		"website" : null,
		"latitude" : -122.266281127930,
		"longitude" : 47.513156890869
	},
	{
		"id" : 58,
		"name" : "UPS Waterfall Garden Park",
		"city" : "Seattle",
		"address" : "219 2nd Ave S, Seattle, WA 98104, USA",
		"rating" : 4.6,
		"google_id" : "ChIJPUN72LpqkFQRCP8C8t0okEw",
		"description" : null,
		"website" : null,
		"latitude" : -122.331741333008,
		"longitude" : 47.600131988525
	},
	{
		"id" : 59,
		"name" : "Sunset Hill Park",
		"city" : "Seattle",
		"address" : "7531 34th Ave NW, Seattle, WA 98117, USA",
		"rating" : 4.7,
		"google_id" : "ChIJE9gx3XkWkFQRYHYw6I07hnA",
		"description" : null,
		"website" : null,
		"latitude" : -122.400428771973,
		"longitude" : 47.683498382568
	}
]
